<?xml version="1.0" encoding="UTF-8"?>
<kml xmlns="http://www.opengis.net/kml/2.2">
  <Document>
    <name>Untitled layer</name>
    <Style id="icon-1899-0288D1-nodesc-normal">
      <IconStyle>
        <color>ffd18802</color>
        <scale>1</scale>
        <Icon>
          <href>http://www.gstatic.com/mapspro/images/stock/503-wht-blank_maps.png</href>
        </Icon>
        <hotSpot x="16" xunits="pixels" y="32" yunits="insetPixels"/>
      </IconStyle>
      <LabelStyle>
        <scale>0</scale>
      </LabelStyle>
      <BalloonStyle>
        <text><![CDATA[<h3>$[name]</h3>]]></text>
      </BalloonStyle>
    </Style>
    <Style id="icon-1899-0288D1-nodesc-highlight">
      <IconStyle>
        <color>ffd18802</color>
        <scale>1</scale>
        <Icon>
          <href>http://www.gstatic.com/mapspro/images/stock/503-wht-blank_maps.png</href>
        </Icon>
        <hotSpot x="16" xunits="pixels" y="32" yunits="insetPixels"/>
      </IconStyle>
      <LabelStyle>
        <scale>1</scale>
      </LabelStyle>
      <BalloonStyle>
        <text><![CDATA[<h3>$[name]</h3>]]></text>
      </BalloonStyle>
    </Style>
    <StyleMap id="icon-1899-0288D1-nodesc">
      <Pair>
        <key>normal</key>
        <styleUrl>#icon-1899-0288D1-nodesc-normal</styleUrl>
      </Pair>
      <Pair>
        <key>highlight</key>
        <styleUrl>#icon-1899-0288D1-nodesc-highlight</styleUrl>
      </Pair>
    </StyleMap>
    <Placemark>
      <name>M40 Junction</name>
      <styleUrl>#icon-1899-0288D1-nodesc</styleUrl>
      <Point>
        <coordinates>
          -1.1798286,51.8561389,0
        </coordinates>
      </Point>
    </Placemark>
    <Placemark>
      <name>A41 junction</name>
      <styleUrl>#icon-1899-0288D1-nodesc</styleUrl>
      <Point>
        <coordinates>
          -1.1298752,51.8805179,0
        </coordinates>
      </Point>
    </Placemark>
    <Placemark>
      <name>Calvert junction</name>
      <styleUrl>#icon-1899-0288D1-nodesc</styleUrl>
      <Point>
        <coordinates>
          -0.995636,51.912085,0
        </coordinates>
      </Point>
    </Placemark>
    <Placemark>
      <name>Winslow junction</name>
      <styleUrl>#icon-1899-0288D1-nodesc</styleUrl>
      <Point>
        <coordinates>
          -0.8706665,51.9374921,0
        </coordinates>
      </Point>
    </Placemark>
    <Placemark>
      <name>A421 junction</name>
      <styleUrl>#icon-1899-0288D1-nodesc</styleUrl>
      <Point>
        <coordinates>
          -0.7855225,51.9899545,0
        </coordinates>
      </Point>
    </Placemark>
    <Placemark>
      <name>Bletchley junction</name>
      <styleUrl>#icon-1899-0288D1-nodesc</styleUrl>
      <Point>
        <coordinates>
          -0.7292175,52.0047513,0
        </coordinates>
      </Point>
    </Placemark>
    <Placemark>
      <name>M1 junction</name>
      <styleUrl>#icon-1899-0288D1-nodesc</styleUrl>
      <Point>
        <coordinates>
          -0.6289673,52.0347527,0
        </coordinates>
      </Point>
    </Placemark>
  </Document>
</kml>
